[
    {
        "name": "Andaman and Nicobar Islands",
        "state_code": "AN",
        "type": "Union territory",
        "latitude": "11.74008670",
        "longitude": "92.65864010"
    },
    {
        "name": "Andhra Pradesh",
        "state_code": "AP",
        "type": "state",
        "latitude": "15.91289980",
        "longitude": "79.73998750"
    },
    {
        "name": "Arunachal Pradesh",
        "state_code": "AR",
        "type": "state",
        "latitude": "28.21799940",
        "longitude": "94.72775280"
    },
    {
        "name": "Assam",
        "state_code": "AS",
        "type": "state",
        "latitude": "26.20060430",
        "longitude": "92.93757390"
    },
    {
        "name": "Bihar",
        "state_code": "BR",
        "type": "state",
        "latitude": "25.09607420",
        "longitude": "85.31311940"
    },
    {
        "name": "Chandigarh",
        "state_code": "CH",
        "type": "Union territory",
        "latitude": "30.73331480",
        "longitude": "76.77941790"
    },
    {
        "name": "Chhattisgarh",
        "state_code": "CT",
        "type": "state",
        "latitude": "21.27865670",
        "longitude": "81.86614420"
    },
    {
        "name": "Dadra and Nagar Haveli and Daman and Diu",
        "state_code": "DH",
        "type": "Union territory",
        "latitude": "20.39737360",
        "longitude": "72.83279910"
    },
    {
        "name": "Delhi",
        "state_code": "DL",
        "type": "Union territory",
        "latitude": "28.70405920",
        "longitude": "77.10249020"
    },
    {
        "name": "Goa",
        "state_code": "GA",
        "type": "state",
        "latitude": "15.29932650",
        "longitude": "74.12399600"
    },
    {
        "name": "Gujarat",
        "state_code": "GJ",
        "type": "state",
        "latitude": "22.25865200",
        "longitude": "71.19238050"
    },
    {
        "name": "Haryana",
        "state_code": "HR",
        "type": "state",
        "latitude": "29.05877570",
        "longitude": "76.08560100"
    },
    {
        "name": "Himachal Pradesh",
        "state_code": "HP",
        "type": "state",
        "latitude": "31.10482940",
        "longitude": "77.17339010"
    },
    {
        "name": "Jammu and Kashmir",
        "state_code": "JK",
        "type": "Union territory",
        "latitude": "33.27783900",
        "longitude": "75.34121790"
    },
    {
        "name": "Jharkhand",
        "state_code": "JH",
        "type": "state",
        "latitude": "23.61018080",
        "longitude": "85.27993540"
    },
    {
        "name": "Karnataka",
        "state_code": "KA",
        "type": "state",
        "latitude": "15.31727750",
        "longitude": "75.71388840"
    },
    {
        "name": "Kerala",
        "state_code": "KL",
        "type": "state",
        "latitude": "10.85051590",
        "longitude": "76.27108330"
    },
    {
        "name": "Ladakh",
        "state_code": "LA",
        "type": "Union territory",
        "latitude": "34.22684750",
        "longitude": "77.56194190"
    },
    {
        "name": "Lakshadweep",
        "state_code": "LD",
        "type": "Union territory",
        "latitude": "10.32802650",
        "longitude": "72.78463360"
    },
    {
        "name": "Madhya Pradesh",
        "state_code": "MP",
        "type": "state",
        "latitude": "22.97342290",
        "longitude": "78.65689420"
    },
    {
        "name": "Maharashtra",
        "state_code": "MH",
        "type": "state",
        "latitude": "19.75147980",
        "longitude": "75.71388840"
    },
    {
        "name": "Manipur",
        "state_code": "MN",
        "type": "state",
        "latitude": "24.66371730",
        "longitude": "93.90626880"
    },
    {
        "name": "Meghalaya",
        "state_code": "ML",
        "type": "state",
        "latitude": "25.46703080",
        "longitude": "91.36621600"
    },
    {
        "name": "Mizoram",
        "state_code": "MZ",
        "type": "state",
        "latitude": "23.16454300",
        "longitude": "92.93757390"
    },
    {
        "name": "Nagaland",
        "state_code": "NL",
        "type": "state",
        "latitude": "26.15843540",
        "longitude": "94.56244260"
    },
    {
        "name": "Odisha",
        "state_code": "OR",
        "type": "state",
        "latitude": "20.95166580",
        "longitude": "85.09852360"
    },
    {
        "name": "Puducherry",
        "state_code": "PY",
        "type": "Union territory",
        "latitude": "11.94159150",
        "longitude": "79.80831330"
    },
    {
        "name": "Punjab",
        "state_code": "PB",
        "type": "state",
        "latitude": "31.14713050",
        "longitude": "75.34121790"
    },
    {
        "name": "Rajasthan",
        "state_code": "RJ",
        "type": "state",
        "latitude": "27.02380360",
        "longitude": "74.21793260"
    },
    {
        "name": "Sikkim",
        "state_code": "SK",
        "type": "state",
        "latitude": "27.53297180",
        "longitude": "88.51221780"
    },
    {
        "name": "Tamil Nadu",
        "state_code": "TN",
        "type": "state",
        "latitude": "11.12712250",
        "longitude": "78.65689420"
    },
    {
        "name": "Telangana",
        "state_code": "TG",
        "type": "state",
        "latitude": "18.11243720",
        "longitude": "79.01929970"
    },
    {
        "name": "Tripura",
        "state_code": "TR",
        "type": "state",
        "latitude": "23.94084820",
        "longitude": "91.98815270"
    },
    {
        "name": "Uttar Pradesh",
        "state_code": "UP",
        "type": "state",
        "latitude": "26.84670880",
        "longitude": "80.94615920"
    },
    {
        "name": "Uttarakhand",
        "state_code": "UK",
        "type": "state",
        "latitude": "30.06675300",
        "longitude": "79.01929970"
    },
    {
        "name": "West Bengal",
        "state_code": "WB",
        "type": "state",
        "latitude": "22.98675690",
        "longitude": "87.85497550"
    }
]